{
"type": "FeatureCollection",
"name": "POI",
"crs": { "type": "name", "properties": { "name": "urn:ogc:def:crs:EPSG::32637" } },
"features": [
{ "type": "Feature", "properties": { "fid": 1, "Name": "12 Стульев", "Adress": "Ярославская область, город Рыбинск, Стоялая ул., 4, Центральный микрорайон", "Latitude": 58.0495938, "Longitude": 38.8522354, "Rating": 4.5, "Category": "Кафе" }, "geometry": { "type": "Point", "coordinates": [ 491277.834864686417859, 6434241.155255514197052 ] } },
{ "type": "Feature", "properties": { "fid": 2, "Name": "Аджапури", "Adress": "Ярославская область, город Рыбинск, ул. Бабушкина, 29", "Latitude": 58.0575273, "Longitude": 38.7653761, "Rating": 4.8, "Category": "Ресторан" }, "geometry": { "type": "Point", "coordinates": [ 486153.832694141834509, 6435138.937665277160704 ] } },
{ "type": "Feature", "properties": { "fid": 3, "Name": "Гастробар завод", "Adress": "Ярославская область, город Рыбинск, Волжская наб., 19, Центральный микрорайон", "Latitude": 58.046643, "Longitude": 38.868167, "Rating": 4.5, "Category": "Ресторан" }, "geometry": { "type": "Point", "coordinates": [ 492217.594171936740167, 6433910.684504483826458 ] } },
{ "type": "Feature", "properties": { "fid": 4, "Name": "ГироБар", "Adress": "Ярославская область, город Рыбинск, ул. Академика Губкина, 33, посёлок Северный, Центральный планировочный район", "Latitude": 58.0601069, "Longitude": 38.806988, "Rating": 5.0, "Category": "Кафе" }, "geometry": { "type": "Point", "coordinates": [ 488610.346686928300187, 6435418.357870490290225 ] } },
{ "type": "Feature", "properties": { "fid": 5, "Name": "ГироБар", "Adress": "Ярославская область, город Рыбинск, Ярославская область, Рыбинск, улица 9 Мая", "Latitude": 58.0450424, "Longitude": 38.7923279, "Rating": 5.0, "Category": "Кафе" }, "geometry": { "type": "Point", "coordinates": [ 487740.096321822493337, 6433743.738268150947988 ] } },
{ "type": "Feature", "properties": { "fid": 6, "Name": "ГироБар", "Adress": "Ярославская область, город Рыбинск, ул. Герцена, 62, ТЦ Сенная площадь", "Latitude": 58.050307, "Longitude": 38.8338832, "Rating": 5.0, "Category": "Кафе" }, "geometry": { "type": "Point", "coordinates": [ 490194.748193509294651, 6434323.076240753754973 ] } },
{ "type": "Feature", "properties": { "fid": 7, "Name": "ГироБар", "Adress": "Ярославская область, город Рыбинск, ул. Плеханова, 37А, Центральный микрорайон", "Latitude": 58.0444405, "Longitude": 38.8281597, "Rating": 5.0, "Category": "Кафе" }, "geometry": { "type": "Point", "coordinates": [ 489855.249799543700647, 6433670.782443331554532 ] } },
{ "type": "Feature", "properties": { "fid": 8, "Name": "ГироБар", "Adress": "Ярославская область, город Рыбинск, Юбилейная ул., 32, район Мариевка, Южный планировочный район", "Latitude": 58.0233908, "Longitude": 38.856215, "Rating": 5.0, "Category": "Кафе" }, "geometry": { "type": "Point", "coordinates": [ 491506.529209578642622, 6431323.374167648144066 ] } },
{ "type": "Feature", "properties": { "fid": 9, "Name": "ГироБар", "Adress": "Ярославская область, город Рыбинск, ул. Бабушкина, 29", "Latitude": 58.0575273, "Longitude": 38.7653761, "Rating": 5.0, "Category": "Кафе" }, "geometry": { "type": "Point", "coordinates": [ 486153.832694141834509, 6435138.937665277160704 ] } },
{ "type": "Feature", "properties": { "fid": 10, "Name": "ГироБар", "Adress": "Ярославская область, город Рыбинск, ул. Блюхера, 13, Зачерёмушный район, Южный планировочный район", "Latitude": 58.0359012, "Longitude": 38.867888, "Rating": 4.9, "Category": "Кафе" }, "geometry": { "type": "Point", "coordinates": [ 492198.784580964944325, 6432714.792410640977323 ] } },
{ "type": "Feature", "properties": { "fid": 11, "Name": "ГироБар", "Adress": "Ярославская область, город Рыбинск, ул. Луначарского, 20, Центральный микрорайон", "Latitude": 58.0485843, "Longitude": 38.8355179, "Rating": 5.0, "Category": "Кафе" }, "geometry": { "type": "Point", "coordinates": [ 490290.771103452250827, 6434131.045354097150266 ] } },
{ "type": "Feature", "properties": { "fid": 12, "Name": "ГироБар", "Adress": "Ярославская область, город Рыбинск, ул. Гагарина, 23, Гагаринский район, Южный планировочный район", "Latitude": 58.034527, "Longitude": 38.847041, "Rating": 5.0, "Category": "Кафе" }, "geometry": { "type": "Point", "coordinates": [ 490967.423629557655659, 6432564.395948707126081 ] } },
{ "type": "Feature", "properties": { "fid": 13, "Name": "ГироБар", "Adress": "Ярославская область, город Рыбинск, просп. 50 лет Октября, 29", "Latitude": 58.0926421, "Longitude": 38.6852984, "Rating": 5.0, "Category": "Кафе" }, "geometry": { "type": "Point", "coordinates": [ 481446.346038383548148, 6439067.62144663464278 ] } },
{ "type": "Feature", "properties": { "fid": 14, "Name": "ГК Бригантина", "Adress": "Ярославская область, город Рыбинск, Судостроительная ул., 1Б, посёлок Судоверфь", "Latitude": 58.1175939, "Longitude": 38.6467481, "Rating": 4.5, "Category": "Ресторан" }, "geometry": { "type": "Point", "coordinates": [ 479188.115190962678753, 6441856.851906253956258 ] } },
{ "type": "Feature", "properties": { "fid": 15, "Name": "Десертомания", "Adress": "Ярославская область, город Рыбинск, Крестовая ул., 78, Центральный микрорайон", "Latitude": 58.050737, "Longitude": 38.844242, "Rating": 5.0, "Category": "Кофейня" }, "geometry": { "type": "Point", "coordinates": [ 490806.299059839977417, 6434369.492480326443911 ] } },
{ "type": "Feature", "properties": { "fid": 16, "Name": "Добрые булки", "Adress": "Ярославская область, город Рыбинск, Крестовая ул., 4, Центральный микрорайон", "Latitude": 58.048386, "Longitude": 38.8569632, "Rating": 5.0, "Category": "Кофейня" }, "geometry": { "type": "Point", "coordinates": [ 491556.619667308114003, 6434106.085367702879012 ] } },
{ "type": "Feature", "properties": { "fid": 17, "Name": "Додо Пицца", "Adress": "Ярославская область, город Рыбинск, ул. Моторостроителей, 24А, район Скоморохова Гора, Центральный планировочный район, этаж 2", "Latitude": 58.041557, "Longitude": 38.809285, "Rating": 4.7, "Category": "Кафе" }, "geometry": { "type": "Point", "coordinates": [ 488740.059600747132208, 6433352.743281781673431 ] } },
{ "type": "Feature", "properties": { "fid": 18, "Name": "Додо Пицца", "Adress": "Ярославская область, город Рыбинск, Крестовая ул., 85А, Центральный микрорайон", "Latitude": 58.0509263, "Longitude": 38.8413901, "Rating": 4.6, "Category": "Кафе" }, "geometry": { "type": "Point", "coordinates": [ 490638.013798259955365, 6434390.959820787422359 ] } },
{ "type": "Feature", "properties": { "fid": 19, "Name": "Дом культуры и отдыха", "Adress": "Ярославская область, город Рыбинск, Крестовая ул., 80, Центральный микрорайон", "Latitude": 58.0508514, "Longitude": 38.8436814, "Rating": 4.9, "Category": "Ресторан" }, "geometry": { "type": "Point", "coordinates": [ 490773.238860087934881, 6434382.305533246137202 ] } },
{ "type": "Feature", "properties": { "fid": 20, "Name": "Ёбидоёби", "Adress": "Ярославская область, город Рыбинск, Стоялая ул., 13, Центральный микрорайон", "Latitude": 58.0491336, "Longitude": 38.85274, "Rating": 4.9, "Category": "Ресторан" }, "geometry": { "type": "Point", "coordinates": [ 491307.508343465102371, 6434189.854370926506817 ] } },
{ "type": "Feature", "properties": { "fid": 21, "Name": "Жар пицца", "Adress": "Ярославская область, город Рыбинск, ул. Академика Губкина, 2, посёлок Северный, Центральный планировочный район", "Latitude": 58.0601615, "Longitude": 38.8208961, "Rating": 4.7, "Category": "Кафе" }, "geometry": { "type": "Point", "coordinates": [ 489431.079666908597574, 6435422.175052768550813 ] } },
{ "type": "Feature", "properties": { "fid": 22, "Name": "Кофе с собой", "Adress": "Ярославская область, город Рыбинск, Крестовая ул., 124, Центральный микрорайон", "Latitude": 58.0536117, "Longitude": 38.8310528, "Rating": 5.0, "Category": "Кофейня" }, "geometry": { "type": "Point", "coordinates": [ 490028.60107203287771, 6434691.415552888065577 ] } },
{ "type": "Feature", "properties": { "fid": 23, "Name": "Кофейня 1777", "Adress": "Ярославская область, город Рыбинск, Крестовая ул., 141, Центральный микрорайон", "Latitude": 58.05279, "Longitude": 38.8288111, "Rating": 4.9, "Category": "Кофейня" }, "geometry": { "type": "Point", "coordinates": [ 489896.06238093576394, 6434600.265796330757439 ] } },
{ "type": "Feature", "properties": { "fid": 24, "Name": "Луиджи", "Adress": "Ярославская область, город Рыбинск, ул. Чкалова, 1, Центральный микрорайон", "Latitude": 58.047666, "Longitude": 38.852197, "Rating": 5.0, "Category": "Кафе" }, "geometry": { "type": "Point", "coordinates": [ 491275.098426266456954, 6434026.530932987108827 ] } },
{ "type": "Feature", "properties": { "fid": 25, "Name": "Мамука", "Adress": "Ярославская область, город Рыбинск, Крестовая ул., 120, Центральный микрорайон", "Latitude": 58.0528824, "Longitude": 38.8331733, "Rating": 5.0, "Category": "Ресторан" }, "geometry": { "type": "Point", "coordinates": [ 490153.553913543990348, 6434609.908611420542002 ] } },
{ "type": "Feature", "properties": { "fid": 26, "Name": "Манеки", "Adress": "Ярославская область, город Рыбинск, ул. Герцена, 31", "Latitude": 58.0480195, "Longitude": 38.8403785, "Rating": 4.9, "Category": "Ресторан" }, "geometry": { "type": "Point", "coordinates": [ 490577.538931835908443, 6434067.475492822937667 ] } },
{ "type": "Feature", "properties": { "fid": 27, "Name": "Метеор", "Adress": "Ярославская область, город Рыбинск, просп. Серова, 21", "Latitude": 58.060549, "Longitude": 38.77229, "Rating": 4.5, "Category": "Кафе" }, "geometry": { "type": "Point", "coordinates": [ 486562.985357578378171, 6435473.957921114750206 ] } },
{ "type": "Feature", "properties": { "fid": 28, "Name": "Много Рыбы", "Adress": "Ярославская область, город Рыбинск, Крестовая ул., 97, Центральный микрорайон", "Latitude": 58.0513907, "Longitude": 38.8389256, "Rating": 4.5, "Category": "Кафе" }, "geometry": { "type": "Point", "coordinates": [ 490492.669615377206355, 6434443.007587819360197 ] } },
{ "type": "Feature", "properties": { "fid": 29, "Name": "Пинта", "Adress": "Ярославская область, город Рыбинск, Волжская наб., 101", "Latitude": 58.0500724, "Longitude": 38.8515936, "Rating": 4.9, "Category": "Кафе" }, "geometry": { "type": "Point", "coordinates": [ 491240.068202984519303, 6434294.522698143497109 ] } },
{ "type": "Feature", "properties": { "fid": 30, "Name": "ПиццаФабрика", "Adress": "Ярославская область, город Рыбинск, ул. Пушкина, 2А, Центральный микрорайон", "Latitude": 58.0515215, "Longitude": 38.8417999, "Rating": 5.0, "Category": "Ресторан" }, "geometry": { "type": "Point", "coordinates": [ 490662.357563751458656, 6434457.168962799012661 ] } },
{ "type": "Feature", "properties": { "fid": 31, "Name": "ПиццаФабрика", "Adress": "Ярославская область, город Рыбинск, ул. 50 лет ВЛКСМ, 53, корп. 2", "Latitude": 58.0549802, "Longitude": 38.7695893, "Rating": 5.0, "Category": "Ресторан" }, "geometry": { "type": "Point", "coordinates": [ 486401.503483751090243, 6434854.503375467844307 ] } },
{ "type": "Feature", "properties": { "fid": 32, "Name": "Роща", "Adress": "Ярославская область, город Рыбинск, ул. Бабушкина, 29", "Latitude": 58.0575273, "Longitude": 38.7653761, "Rating": 5.0, "Category": "Ресторан" }, "geometry": { "type": "Point", "coordinates": [ 486153.832694141834509, 6435138.937665277160704 ] } },
{ "type": "Feature", "properties": { "fid": 33, "Name": "Русский", "Adress": "Ярославская область, город Рыбинск, ул. Луначарского, 10, Центральный микрорайон, ТРЦ Эпицентр, этаж 4", "Latitude": 58.051503, "Longitude": 38.8366421, "Rating": 4.5, "Category": "Ресторан" }, "geometry": { "type": "Point", "coordinates": [ 490357.917655008204747, 6434455.834168150089681 ] } },
{ "type": "Feature", "properties": { "fid": 34, "Name": "Сациви", "Adress": "Ярославская область, город Рыбинск, Крестовая ул., 86, Центральный микрорайон", "Latitude": 58.0512888, "Longitude": 38.8413774, "Rating": 4.6, "Category": "Ресторан" }, "geometry": { "type": "Point", "coordinates": [ 490637.358985766943078, 6434431.32008792925626 ] } },
{ "type": "Feature", "properties": { "fid": 35, "Name": "Сладкая Жизнь", "Adress": "Ярославская область, город Рыбинск, Волжская наб., 107", "Latitude": 58.0502813, "Longitude": 38.8507923, "Rating": 4.8, "Category": "Кафе" }, "geometry": { "type": "Point", "coordinates": [ 491192.821591401123442, 6434317.884564466774464 ] } },
{ "type": "Feature", "properties": { "fid": 36, "Name": "Старик Хинкалыч", "Adress": "Ярославская область, город Рыбинск, Крестовая ул., 31, Центральный микрорайон", "Latitude": 58.0490682, "Longitude": 38.8517994, "Rating": 4.8, "Category": "Ресторан" }, "geometry": { "type": "Point", "coordinates": [ 491251.970499311864842, 6434182.694609329104424 ] } },
{ "type": "Feature", "properties": { "fid": 37, "Name": "Стейк", "Adress": "Ярославская область, город Рыбинск, ул. Чкалова, 56, Центральный микрорайон", "Latitude": 58.0505794, "Longitude": 38.8398333, "Rating": 5.0, "Category": "Ресторан" }, "geometry": { "type": "Point", "coordinates": [ 490546.031811237917282, 6434352.555028827860951 ] } },
{ "type": "Feature", "properties": { "fid": 38, "Name": "Столовая № 6", "Adress": "Ярославская область, город Рыбинск, Красная площадь, 4", "Latitude": 58.049059, "Longitude": 38.855449, "Rating": 4.7, "Category": "Кафе" }, "geometry": { "type": "Point", "coordinates": [ 491467.397787574329413, 6434181.203350657597184 ] } },
{ "type": "Feature", "properties": { "fid": 39, "Name": "Супberry", "Adress": "Ярославская область, город Рыбинск, Стоялая ул., 16, Центральный микрорайон", "Latitude": 58.0484166, "Longitude": 38.8520273, "Rating": 5.0, "Category": "Ресторан" }, "geometry": { "type": "Point", "coordinates": [ 491265.264064313960262, 6434110.120007769204676 ] } },
{ "type": "Feature", "properties": { "fid": 40, "Name": "Суши мастер", "Adress": "Ярославская область, город Рыбинск, ул. Плеханова, 33А, Центральный микрорайон", "Latitude": 58.0439666, "Longitude": 38.8294588, "Rating": 4.9, "Category": "Ресторан" }, "geometry": { "type": "Point", "coordinates": [ 489931.810018356773071, 6433617.826998794451356 ] } },
{ "type": "Feature", "properties": { "fid": 41, "Name": "Тарелочка", "Adress": "Ярославская область, город Рыбинск, Крестовая ул., 51, Центральный микрорайон", "Latitude": 58.0496376, "Longitude": 38.8483424, "Rating": 4.9, "Category": "Кафе" }, "geometry": { "type": "Point", "coordinates": [ 491048.052250066422857, 6434246.541153899393976 ] } },
{ "type": "Feature", "properties": { "fid": 42, "Name": "Тарелочка", "Adress": "Ярославская область, город Рыбинск, бул. Победы, 17", "Latitude": 58.0627422, "Longitude": 38.7801464, "Rating": 4.7, "Category": "Кафе" }, "geometry": { "type": "Point", "coordinates": [ 487027.380359191447496, 6435716.5986836720258 ] } },
{ "type": "Feature", "properties": { "fid": 43, "Name": "Хитрый лис", "Adress": "Ярославская область, город Рыбинск, Крестовая ул., 105, Центральный микрорайон", "Latitude": 58.0517298, "Longitude": 38.8368923, "Rating": 4.8, "Category": "Кафе" }, "geometry": { "type": "Point", "coordinates": [ 490372.746506291150581, 6434481.048975984565914 ] } },
{ "type": "Feature", "properties": { "fid": 44, "Name": "Центр Употребления Пельменей", "Adress": "Ярославская область, город Рыбинск, Крестовая ул., 51, Центральный микрорайон, вход через \\Буфет Тарелочка\\\"", "Latitude": 58.0496376, "Longitude": 38.8483424, "Rating": 5.0, "Category": "Кафе" }, "geometry": { "type": "Point", "coordinates": [ 491048.052250066422857, 6434246.541153899393976 ] } },
{ "type": "Feature", "properties": { "fid": 45, "Name": "Центральная кофейня", "Adress": "Ярославская область, город Рыбинск, ул. Кирова, 9, Центральный микрорайон", "Latitude": 58.050224, "Longitude": 38.833768, "Rating": 4.8, "Category": "Кофейня" }, "geometry": { "type": "Point", "coordinates": [ 490187.925629162986297, 6434313.852271195501089 ] } },
{ "type": "Feature", "properties": { "fid": 46, "Name": "Шаурма у Сурена", "Adress": "Ярославская область, город Рыбинск, д. Хвощёвка, 37", "Latitude": 58.03, "Longitude": 38.797778, "Rating": 5.0, "Category": "Кафе" }, "geometry": { "type": "Point", "coordinates": [ 488056.827148159150966, 6432068.039428197778761 ] } },
{ "type": "Feature", "properties": { "fid": 47, "Name": "Шаурмания", "Adress": "Ярославская область, город Рыбинск, ул. Чкалова, 74, Центральный микрорайон", "Latitude": 58.0514221, "Longitude": 38.8358565, "Rating": 5.0, "Category": "Кофейня" }, "geometry": { "type": "Point", "coordinates": [ 490311.526341821823735, 6434446.939712963066995 ] } },
{ "type": "Feature", "properties": { "fid": 48, "Name": "ЮрЛа", "Adress": "Ярославская область, город Рыбинск, Волжская наб., 201", "Latitude": 58.0579056, "Longitude": 38.8256573, "Rating": 4.9, "Category": "Ресторан" }, "geometry": { "type": "Point", "coordinates": [ 489711.389141739986371, 6435170.281491106376052 ] } },
{ "type": "Feature", "properties": { "fid": 49, "Name": "Явка", "Adress": "Ярославская область, город Рыбинск, Волжская наб., 67-75", "Latitude": 58.049062, "Longitude": 38.8570491, "Rating": 4.9, "Category": "Кафе" }, "geometry": { "type": "Point", "coordinates": [ 491561.849617665633559, 6434181.336281401105225 ] } },
{ "type": "Feature", "properties": { "fid": 50, "Name": "Chernyshev", "Adress": "Ярославская область, город Рыбинск, ул. Герцена, 18, этаж 1", "Latitude": 58.0468285, "Longitude": 38.8492392, "Rating": 4.5, "Category": "Ресторан" }, "geometry": { "type": "Point", "coordinates": [ 491100.289684706251137, 6433933.674899513833225 ] } },
{ "type": "Feature", "properties": { "fid": 51, "Name": "One Price Coffee", "Adress": "Ярославская область, город Рыбинск, Крестовая ул., 117, Центральный микрорайон", "Latitude": 58.051657, "Longitude": 38.834365, "Rating": 4.5, "Category": "Кофейня" }, "geometry": { "type": "Point", "coordinates": [ 490223.555689066648483, 6434473.306998397223651 ] } },
{ "type": "Feature", "properties": { "fid": 52, "Name": "Panda Bar", "Adress": "Ярославская область, город Рыбинск, ул. Бабушкина, 29", "Latitude": 58.0575273, "Longitude": 38.7653761, "Rating": 5.0, "Category": "Кафе" }, "geometry": { "type": "Point", "coordinates": [ 486153.832694141834509, 6435138.937665277160704 ] } },
{ "type": "Feature", "properties": { "fid": 53, "Name": "Pizzapan", "Adress": "Ярославская область, город Рыбинск, Крестовая ул., 99, Центральный микрорайон", "Latitude": 58.051476, "Longitude": 38.8385266, "Rating": 4.9, "Category": "Кафе" }, "geometry": { "type": "Point", "coordinates": [ 490469.141591083607636, 6434452.56061022542417 ] } },
{ "type": "Feature", "properties": { "fid": 54, "Name": "Музей Советская эпоха", "Adress": "Ярославская область, город Рыбинск, ул. Гончарова, 3, посёлок ГЭС-14, Шекснинский планировочный район", "Latitude": 58.0731051, "Longitude": 38.8160849, "Rating": null, "Category": "Музей" }, "geometry": { "type": "Point", "coordinates": [ 489151.09687974548433, 6436864.00130036380142 ] } },
{ "type": "Feature", "properties": { "fid": 55, "Name": "Богемия", "Adress": "Ярославская область, город Рыбинск, ул. Блюхера, 1, Зачерёмушный район, Южный планировочный район", "Latitude": 58.0366717, "Longitude": 38.8586054, "Rating": null, "Category": "Музей" }, "geometry": { "type": "Point", "coordinates": [ 491650.826993845112156, 6432801.684870489872992 ] } },
{ "type": "Feature", "properties": { "fid": 56, "Name": "Рыбинский государственный историко-архитектурный и художественный музей-заповедник", "Adress": "Ярославская область, город Рыбинск, Волжская наб., 2", "Latitude": 58.0494599, "Longitude": 38.8561516, "Rating": null, "Category": "Музей" }, "geometry": { "type": "Point", "coordinates": [ 491508.966126907092985, 6434225.748510293662548 ] } },
{ "type": "Feature", "properties": { "fid": 57, "Name": "Новогодние Истории", "Adress": "Ярославская область, город Рыбинск, Красная площадь, 5, 2, этаж и 3", "Latitude": 58.04899, "Longitude": 38.8559401, "Rating": null, "Category": "Музей" }, "geometry": { "type": "Point", "coordinates": [ 491496.370178129058331, 6434173.459367680363357 ] } },
{ "type": "Feature", "properties": { "fid": 58, "Name": "Рыбинский музей адмирала Ф. Ф. Ушакова", "Adress": "Ярославская область, город Рыбинск, Крестовая ул., 14-36, Центральный микрорайон", "Latitude": 58.0489615, "Longitude": 38.8536602, "Rating": null, "Category": "Музей" }, "geometry": { "type": "Point", "coordinates": [ 491361.784510126512032, 6434170.57573760766536 ] } },
{ "type": "Feature", "properties": { "fid": 59, "Name": "Русская Атлантида", "Adress": "Ярославская область, город Рыбинск, Волжская наб., 77-93", "Latitude": 58.0492716, "Longitude": 38.8556921, "Rating": null, "Category": "Музей" }, "geometry": { "type": "Point", "coordinates": [ 491481.798141875478905, 6434204.842225895263255 ] } },
{ "type": "Feature", "properties": { "fid": 60, "Name": "Музей Мологского края им. Н. М. Алексеева", "Adress": "Ярославская область, город Рыбинск, Преображенский пер., 6А", "Latitude": 58.047267, "Longitude": 38.855494, "Rating": null, "Category": "Музей" }, "geometry": { "type": "Point", "coordinates": [ 491469.62710881838575, 6433981.687512799166143 ] } },
{ "type": "Feature", "properties": { "fid": 61, "Name": "Литературный город Рыбинск", "Adress": "Ярославская область, город Рыбинск, Крестовая ул., 46, Центральный микрорайон", "Latitude": 58.049553, "Longitude": 38.851005, "Rating": null, "Category": "Музей" }, "geometry": { "type": "Point", "coordinates": [ 491205.19755897752475, 6434236.772427134215832 ] } },
{ "type": "Feature", "properties": { "fid": 62, "Name": "Музей уникальной техники Мотославль", "Adress": "Ярославская область, город Рыбинск, просп. Ленина, 178А", "Latitude": 58.0585042, "Longitude": 38.7882812, "Rating": null, "Category": "Музей" }, "geometry": { "type": "Point", "coordinates": [ 487505.899533635063563, 6435243.231783142313361 ] } },
{ "type": "Feature", "properties": { "fid": 63, "Name": "Нобели и нобелевское движение", "Adress": "Ярославская область, город Рыбинск, Волжская наб., 53", "Latitude": 58.0479504, "Longitude": 38.8622289, "Rating": null, "Category": "Музей" }, "geometry": { "type": "Point", "coordinates": [ 491867.35170608694898, 6434056.942066595889628 ] } },
{ "type": "Feature", "properties": { "fid": 64, "Name": "Музей-мастерская фортепиано Алексея Ставицкого", "Adress": "Ярославская область, город Рыбинск, Волжская наб., 67-75, этаж 3", "Latitude": 58.0490769, "Longitude": 38.8574503, "Rating": null, "Category": "Музей" }, "geometry": { "type": "Point", "coordinates": [ 491585.535257054143585, 6434182.945090801455081 ] } },
{ "type": "Feature", "properties": { "fid": 65, "Name": "Музей воинов-интернационалистов", "Adress": "Ярославская область, город Рыбинск, ул. Чкалова, 89, Центральный микрорайон", "Latitude": 58.0518146, "Longitude": 38.8279601, "Rating": null, "Category": "Музей" }, "geometry": { "type": "Point", "coordinates": [ 489845.557909074705094, 6434491.79846703261137 ] } },
{ "type": "Feature", "properties": { "fid": 66, "Name": "Рыбинский музей-заповедник, Дом-музей академика А.А. Ухтомского", "Adress": "Ярославская область, город Рыбинск, ул. Ухтомского, 45, Зачерёмушный район, Южный планировочный район", "Latitude": 58.0379314, "Longitude": 38.8664098, "Rating": null, "Category": "Музей" }, "geometry": { "type": "Point", "coordinates": [ 492111.944028340338264, 6432940.993622524663806 ] } },
{ "type": "Feature", "properties": { "fid": 67, "Name": "Дом пожарной дружины", "Adress": "Ярославская область, город Рыбинск, ул. Чкалова, 3, Центральный микрорайон", "Latitude": 58.0478549, "Longitude": 38.8509945, "Rating": null, "Category": "Музей" }, "geometry": { "type": "Point", "coordinates": [ 491204.160592400236055, 6434047.717885706573725 ] } },
{ "type": "Feature", "properties": { "fid": 68, "Name": "Музей мельничного дела", "Adress": "Ярославская область, город Рыбинск, Красная площадь, 3, вход со двора", "Latitude": 58.04899, "Longitude": 38.8559401, "Rating": null, "Category": "Музей" }, "geometry": { "type": "Point", "coordinates": [ 491496.370178129058331, 6434173.459367680363357 ] } },
{ "type": "Feature", "properties": { "fid": 69, "Name": "Роза центр", "Adress": "Ярославская область, город Рыбинск, Стоялая ул., 19, Центральный микрорайон", "Latitude": 58.0481255, "Longitude": 38.8530377, "Rating": null, "Category": "Магазин сувениров" }, "geometry": { "type": "Point", "coordinates": [ 491324.836752098519355, 6434077.580490083433688 ] } },
{ "type": "Feature", "properties": { "fid": 70, "Name": "Процветы", "Adress": "Ярославская область, город Рыбинск, ул. Луначарского, 2А, Центральный микрорайон", "Latitude": 58.053135, "Longitude": 38.838318, "Rating": null, "Category": "Магазин сувениров" }, "geometry": { "type": "Point", "coordinates": [ 490457.271395375602879, 6434637.292886956594884 ] } },
{ "type": "Feature", "properties": { "fid": 71, "Name": "Маслобойня Польза вкуса", "Adress": "Ярославская область, город Рыбинск, Красная площадь, 4", "Latitude": 58.049059, "Longitude": 38.855449, "Rating": null, "Category": "Магазин сувениров" }, "geometry": { "type": "Point", "coordinates": [ 491467.397787574329413, 6434181.203350657597184 ] } },
{ "type": "Feature", "properties": { "fid": 72, "Name": "Рыбинские рыбы", "Adress": "Ярославская область, город Рыбинск, Волжская наб., 99А", "Latitude": 58.049962, "Longitude": 38.85222, "Rating": null, "Category": "Магазин сувениров" }, "geometry": { "type": "Point", "coordinates": [ 491277.015557229169644, 6434282.150354302488267 ] } },
{ "type": "Feature", "properties": { "fid": 73, "Name": "Музей Мологского края им. Н. М. Алексеева", "Adress": "Ярославская область, город Рыбинск, Преображенский пер., 6А", "Latitude": 58.047267, "Longitude": 38.855494, "Rating": null, "Category": "Магазин сувениров" }, "geometry": { "type": "Point", "coordinates": [ 491469.62710881838575, 6433981.687512799166143 ] } },
{ "type": "Feature", "properties": { "fid": 74, "Name": "Молога. Росписи затопленных земель", "Adress": "Ярославская область, город Рыбинск, Красная площадь, 3", "Latitude": 58.04899, "Longitude": 38.8559401, "Rating": null, "Category": "Магазин сувениров" }, "geometry": { "type": "Point", "coordinates": [ 491496.370178129058331, 6434173.459367680363357 ] } },
{ "type": "Feature", "properties": { "fid": 75, "Name": "Сундукъ Путешествій", "Adress": "Ярославская область, город Рыбинск, Волжская наб., 107", "Latitude": 58.0502813, "Longitude": 38.8507923, "Rating": null, "Category": "Магазин сувениров" }, "geometry": { "type": "Point", "coordinates": [ 491192.821591401123442, 6434317.884564466774464 ] } },
{ "type": "Feature", "properties": { "fid": 76, "Name": "Табачная Империя", "Adress": "Ярославская область, город Рыбинск, Крестовая ул., 82, Центральный микрорайон", "Latitude": 58.0510044, "Longitude": 38.8429065, "Rating": null, "Category": "Магазин сувениров" }, "geometry": { "type": "Point", "coordinates": [ 490727.539790664566681, 6434399.445753645151854 ] } },
{ "type": "Feature", "properties": { "fid": 77, "Name": "Я Тебя Люблю 18+", "Adress": "Ярославская область, город Рыбинск, ул. Ломоносова, 6, Центральный микрорайон", "Latitude": 58.0492204, "Longitude": 38.8497054, "Rating": null, "Category": "Магазин сувениров" }, "geometry": { "type": "Point", "coordinates": [ 491128.403077677241527, 6434199.912809283472598 ] } },
{ "type": "Feature", "properties": { "fid": 78, "Name": "Читай-город", "Adress": "Ярославская область, город Рыбинск, Крестовая ул., 128, Центральный микрорайон", "Latitude": 58.0534563, "Longitude": 38.8297613, "Rating": null, "Category": "Магазин сувениров" }, "geometry": { "type": "Point", "coordinates": [ 489952.332186528074089, 6434674.30572837498039 ] } },
{ "type": "Feature", "properties": { "fid": 79, "Name": "Рубин", "Adress": "Ярославская область, город Рыбинск, просп. Мира, 23, микрорайон Веретье-2, Западный планировочный район", "Latitude": 58.0567811, "Longitude": 38.760863, "Rating": null, "Category": "Магазин сувениров" }, "geometry": { "type": "Point", "coordinates": [ 485887.201651837327518, 6435056.794874899089336 ] } },
{ "type": "Feature", "properties": { "fid": 80, "Name": "modi", "Adress": "Ярославская область, город Рыбинск, ул. Бабушкина, 29", "Latitude": 58.0575273, "Longitude": 38.7653761, "Rating": null, "Category": "Магазин сувениров" }, "geometry": { "type": "Point", "coordinates": [ 486153.832694141834509, 6435138.937665277160704 ] } },
{ "type": "Feature", "properties": { "fid": 81, "Name": "Унция", "Adress": "Ярославская область, город Рыбинск, Крестовая ул., 25, Центральный микрорайон, этаж 2", "Latitude": 58.048531, "Longitude": 38.854334, "Rating": null, "Category": "Магазин сувениров" }, "geometry": { "type": "Point", "coordinates": [ 491401.454467846138868, 6434122.560540309175849 ] } },
{ "type": "Feature", "properties": { "fid": 82, "Name": "Читай-город", "Adress": "Ярославская область, город Рыбинск, ул. Бабушкина, 29", "Latitude": 58.0575273, "Longitude": 38.7653761, "Rating": null, "Category": "Магазин сувениров" }, "geometry": { "type": "Point", "coordinates": [ 486153.832694141834509, 6435138.937665277160704 ] } },
{ "type": "Feature", "properties": { "fid": 83, "Name": "Вечнозелёные", "Adress": "Ярославская область, город Рыбинск, Карякинская ул., 64, Центральный микрорайон", "Latitude": 58.0457534, "Longitude": 38.8346022, "Rating": null, "Category": "Магазин сувениров" }, "geometry": { "type": "Point", "coordinates": [ 490235.94625529757468, 6433816.002743034623563 ] } },
{ "type": "Feature", "properties": { "fid": 84, "Name": "Календарь подарков", "Adress": "Ярославская область, город Рыбинск, ул. Герцена, 62", "Latitude": 58.050062, "Longitude": 38.833534, "Rating": null, "Category": "Магазин сувениров" }, "geometry": { "type": "Point", "coordinates": [ 490174.069008140475489, 6434295.850226331502199 ] } },
{ "type": "Feature", "properties": { "fid": 85, "Name": "Подарки сказочного королевства", "Adress": "Ярославская область, город Рыбинск, Ярославский тракт, 41", "Latitude": 58.0307469, "Longitude": 38.8989593, "Rating": null, "Category": "Магазин сувениров" }, "geometry": { "type": "Point", "coordinates": [ 494032.685794561984949, 6432137.778518378734589 ] } },
{ "type": "Feature", "properties": { "fid": 86, "Name": "Новая Волга", "Adress": "Ярославская область, город Рыбинск, Волжская наб., 44", "Latitude": 58.0476699, "Longitude": 38.8641596, "Rating": 5.0, "Category": "Гостиница" }, "geometry": { "type": "Point", "coordinates": [ 491981.258294244529679, 6434025.482038066722453 ] } },
{ "type": "Feature", "properties": { "fid": 87, "Name": "ГК Бригантина", "Adress": "Ярославская область, город Рыбинск, Судостроительная ул., 1Б, посёлок Судоверфь", "Latitude": 58.1175939, "Longitude": 38.6467481, "Rating": 4.5, "Category": "Гостиница" }, "geometry": { "type": "Point", "coordinates": [ 479188.115190962678753, 6441856.851906253956258 ] } },
{ "type": "Feature", "properties": { "fid": 88, "Name": "ЮрЛа", "Adress": "Ярославская область, город Рыбинск, Волжская наб., 201", "Latitude": 58.0579056, "Longitude": 38.8256573, "Rating": 5.0, "Category": "Гостиница" }, "geometry": { "type": "Point", "coordinates": [ 489711.389141739986371, 6435170.281491106376052 ] } },
{ "type": "Feature", "properties": { "fid": 89, "Name": "Рыбинск", "Adress": "Ярославская область, город Рыбинск, Крестовая ул., 120, Центральный микрорайон", "Latitude": 58.0528824, "Longitude": 38.8331733, "Rating": 4.4, "Category": "Гостиница" }, "geometry": { "type": "Point", "coordinates": [ 490153.553913543990348, 6434609.908611420542002 ] } },
{ "type": "Feature", "properties": { "fid": 90, "Name": "Богемия", "Adress": "Ярославская область, город Рыбинск, Бульварная ул., 2, Центральный микрорайон", "Latitude": 58.0473353, "Longitude": 38.857665, "Rating": 4.8, "Category": "Гостиница" }, "geometry": { "type": "Point", "coordinates": [ 491597.799910213274416, 6433989.019418050535023 ] } },
{ "type": "Feature", "properties": { "fid": 91, "Name": "Бурлак", "Adress": "Ярославская область, город Рыбинск, ул. Пушкина, 1, Центральный микрорайон", "Latitude": 58.0518055, "Longitude": 38.8425641, "Rating": 4.9, "Category": "Гостиница" }, "geometry": { "type": "Point", "coordinates": [ 490707.537567720573861, 6434488.682345294393599 ] } },
{ "type": "Feature", "properties": { "fid": 92, "Name": "Дом для друзей", "Adress": "Ярославская область, город Рыбинск, Карякинская ул., 60, Центральный микрорайон", "Latitude": 58.0457499, "Longitude": 38.8353274, "Rating": 5.0, "Category": "Гостиница" }, "geometry": { "type": "Point", "coordinates": [ 490278.756534667569213, 6433815.508446613326669 ] } },
{ "type": "Feature", "properties": { "fid": 93, "Name": "Усадьба Тюменева", "Adress": "Ярославская область, город Рыбинск, ул. Герцена, 5", "Latitude": 58.046565, "Longitude": 38.8486, "Rating": 4.8, "Category": "Гостиница" }, "geometry": { "type": "Point", "coordinates": [ 491062.490700187161565, 6433904.422877887263894 ] } },
{ "type": "Feature", "properties": { "fid": 94, "Name": "На Введенской", "Adress": "Ярославская область, город Рыбинск, Введенская ул., 2, Центральный микрорайон", "Latitude": 58.0463147, "Longitude": 38.8696137, "Rating": 5.0, "Category": "Гостиница" }, "geometry": { "type": "Point", "coordinates": [ 492302.925567457161378, 6433873.967807052657008 ] } },
{ "type": "Feature", "properties": { "fid": 95, "Name": "Гостевой дом на Волге", "Adress": "Ярославская область, город Рыбинск, ул. Коллективизации, 4, район Заволжье-1, Заволжский планировочный район", "Latitude": 58.0560575, "Longitude": 38.857674, "Rating": 4.7, "Category": "Гостиница" }, "geometry": { "type": "Point", "coordinates": [ 491600.378016035363544, 6434960.094468355178833 ] } },
{ "type": "Feature", "properties": { "fid": 96, "Name": "Виконда", "Adress": "Ярославская область, город Рыбинск, ул. Бабушкина, 29, этаж 1", "Latitude": 58.0575273, "Longitude": 38.7653761, "Rating": 5.0, "Category": "Гостиница" }, "geometry": { "type": "Point", "coordinates": [ 486153.832694141834509, 6435138.937665277160704 ] } },
{ "type": "Feature", "properties": { "fid": 97, "Name": "На Казанской", "Adress": "Ярославская область, город Рыбинск, Малая Казанская ул., 7, Центральный микрорайон", "Latitude": 58.045987, "Longitude": 38.8674841, "Rating": 4.7, "Category": "Гостиница" }, "geometry": { "type": "Point", "coordinates": [ 492177.137719308200758, 6433837.728449649177492 ] } },
{ "type": "Feature", "properties": { "fid": 98, "Name": "Гостиница", "Adress": "Ярославская область, город Рыбинск, ул. Боткина, 5, Гагаринский район, Южный планировочный район", "Latitude": 58.0361037, "Longitude": 38.852844, "Rating": 4.2, "Category": "Гостиница" }, "geometry": { "type": "Point", "coordinates": [ 491310.486111967009492, 6432739.174177831970155 ] } },
{ "type": "Feature", "properties": { "fid": 99, "Name": "Неолит", "Adress": "Ярославская область, город Рыбинск, ул. Володарского, 18, район Заволжье-2, Заволжский планировочный район", "Latitude": 58.0457109, "Longitude": 38.9034654, "Rating": 4.4, "Category": "Гостиница" }, "geometry": { "type": "Point", "coordinates": [ 494301.190701630024705, 6433803.386780027300119 ] } },
{ "type": "Feature", "properties": { "fid": 100, "Name": "Центр Кстово", "Adress": "Ярославская область, город Рыбинск, Загородная ул., 20", "Latitude": 58.0041595, "Longitude": 38.864686, "Rating": 5.0, "Category": "Гостиница" }, "geometry": { "type": "Point", "coordinates": [ 492002.627269373042509, 6429181.258099100552499 ] } },
{ "type": "Feature", "properties": { "fid": 101, "Name": "Мучной гостиный двор", "Adress": "Ярославская область, город Рыбинск, Волжская наб., 77-93", "Latitude": 58.0492716, "Longitude": 38.8556921, "Rating": 4.4, "Category": "Гостиница" }, "geometry": { "type": "Point", "coordinates": [ 491481.798141875478905, 6434204.842225895263255 ] } },
{ "type": "Feature", "properties": { "fid": 102, "Name": "Ren town Студия на Набережной, 181", "Adress": "Ярославская область, город Рыбинск, Волжская наб., 181", "Latitude": 58.0557522, "Longitude": 38.8307299, "Rating": 4.6, "Category": "Гостиница" }, "geometry": { "type": "Point", "coordinates": [ 490010.140701084455941, 6434929.773382903076708 ] } },
{ "type": "Feature", "properties": { "fid": 103, "Name": "УМВД России", "Adress": "Ярославская область, город Рыбинск, Карякинская ул., 51, Центральный микрорайон", "Latitude": 58.0468787, "Longitude": 38.8236887, "Rating": 4.1, "Category": "Гостиница" }, "geometry": { "type": "Point", "coordinates": [ 489592.009309713204857, 6433942.916604781523347 ] } },
{ "type": "Feature", "properties": { "fid": 104, "Name": "Апартаменты Богемия", "Adress": "Ярославская область, город Рыбинск, ул. Блюхера, 9, Зачерёмушный район, Южный планировочный район", "Latitude": 58.0364224, "Longitude": 38.8633653, "Rating": 4.2, "Category": "Гостиница" }, "geometry": { "type": "Point", "coordinates": [ 491931.836700458952691, 6432773.350853325799108 ] } },
{ "type": "Feature", "properties": { "fid": 105, "Name": "Лесной остров, база отдыха", "Adress": "Ярославская область, город Рыбинск, Большая Казанская ул., 26, Центральный микрорайон", "Latitude": 58.046177, "Longitude": 38.8651229, "Rating": 4.0, "Category": "Гостиница" }, "geometry": { "type": "Point", "coordinates": [ 492037.790451167849824, 6433859.157839574851096 ] } },
{ "type": "Feature", "properties": { "fid": 106, "Name": "Центр отдыха и здоровья Кстово", "Adress": "Ярославская область, город Рыбинск, Загородная ул., 20", "Latitude": 58.0041595, "Longitude": 38.864686, "Rating": 4.0, "Category": "Гостиница" }, "geometry": { "type": "Point", "coordinates": [ 492002.627269373042509, 6429181.258099100552499 ] } }
]
}
